[
  {"icao": "EGMA", "name": "Fowlmere", "lat": 52.0722, "lon": 0.0700},
  {"icao": "EGKA", "name": "Shoreham", "lat": 50.8356, "lon": -0.2972},
  {"icao": "EGLC", "name": "London City", "lat": 51.5053, "lon": 0.0550},
  {"icao": "EGKK", "name": "Gatwick", "lat": 51.1481, "lon": -0.1903},
  {"icao": "EGLL", "name": "Heathrow", "lat": 51.4700, "lon": -0.4543},
  {"icao": "EGLF", "name": "Farnborough", "lat": 51.2758, "lon": -0.7764},
  {"icao": "EGSS", "name": "Stansted", "lat": 51.8850, "lon": 0.2350},
  {"icao": "EGGW", "name": "Luton", "lat": 51.8747, "lon": -0.3683},
  {"icao": "EGTE", "name": "Exeter", "lat": 50.7344, "lon": -3.4139},
  {"icao": "EGTK", "name": "Oxford", "lat": 51.8369, "lon": -1.3200},
  {"icao": "EGKB", "name": "Biggin Hill", "lat": 51.3308, "lon": 0.0325},
  {"icao": "EGHH", "name": "Bournemouth", "lat": 50.7800, "lon": -1.8425},
  {"icao": "EGHI", "name": "Southampton", "lat": 50.9503, "lon": -1.3568},
  {"icao": "EGHR", "name": "Chichester/Goodwood", "lat": 50.8594, "lon": -0.7594},
  {"icao": "EGHC", "name": "Land's End", "lat": 50.1028, "lon": -5.6706},
  {"icao": "EGHE", "name": "Scilly Isles/St Mary's", "lat": 49.9133, "lon": -6.2917},
  {"icao": "EGHG", "name": "Yeovil", "lat": 50.9394, "lon": -2.6381},
  {"icao": "EGHJ", "name": "Bembridge", "lat": 50.6781, "lon": -1.1094},
  {"icao": "EGHN", "name": "Sandown", "lat": 50.6531, "lon": -1.1819},
  {"icao": "EGHO", "name": "Thruxton", "lat": 51.2111, "lon": -1.5989},
  {"icao": "EGHQ", "name": "Newquay", "lat": 50.4406, "lon": -4.9954},
  {"icao": "LEMG", "name": "Malaga", "lat": 36.6749, "lon": -4.4991},
  {"icao": "LEMD", "name": "Madrid Barajas", "lat": 40.4719, "lon": -3.5626},
  {"icao": "LEBL", "name": "Barcelona", "lat": 41.2971, "lon": 2.0785},
  {"icao": "LEZL", "name": "Seville", "lat": 37.4180, "lon": -5.8931},
  {"icao": "LEGR", "name": "Granada", "lat": 37.1887, "lon": -3.7774},
  {"icao": "LEAL", "name": "Alicante", "lat": 38.2822, "lon": -0.5581},
  {"icao": "LEVC", "name": "Valencia", "lat": 39.4893, "lon": -0.4816},
  {"icao": "LEBB", "name": "Bilbao", "lat": 43.3011, "lon": -2.9106},
  {"icao": "LEAS", "name": "Asturias", "lat": 43.5636, "lon": -6.0342},
  {"icao": "LECO", "name": "A Coruna", "lat": 43.3021, "lon": -8.3773},
  {"icao": "LEZG", "name": "Zaragoza", "lat": 41.6662, "lon": -1.0416},
  {"icao": "LETO", "name": "Madrid Torrejon", "lat": 40.4968, "lon": -3.4459},
  {"icao": "LEAM", "name": "Almeria", "lat": 36.8439, "lon": -2.3701},
  {"icao": "LEMO", "name": "Moron", "lat": 37.1749, "lon": -5.6159},
  {"icao": "LFPG", "name": "Paris Charles de Gaulle", "lat": 49.0128, "lon": 2.5500},
  {"icao": "LFPO", "name": "Paris Orly", "lat": 48.7233, "lon": 2.3794},
  {"icao": "LFPB", "name": "Paris Le Bourget", "lat": 48.9694, "lon": 2.4414},
  {"icao": "LFML", "name": "Marseille", "lat": 43.4392, "lon": 5.2214},
  {"icao": "LFLL", "name": "Lyon", "lat": 45.7256, "lon": 5.0811},
  {"icao": "LFMN", "name": "Nice", "lat": 43.6584, "lon": 7.2159},
  {"icao": "LFBO", "name": "Toulouse", "lat": 43.6291, "lon": 1.3638},
  {"icao": "LFBD", "name": "Bordeaux", "lat": 44.8283, "lon": -0.7155},
  {"icao": "LFRN", "name": "Rennes", "lat": 48.0695, "lon": -1.7348},
  {"icao": "LFRS", "name": "Nantes", "lat": 47.1532, "lon": -1.6108},
  {"icao": "LFRB", "name": "Brest", "lat": 48.4478, "lon": -4.4185},
  {"icao": "EDDF", "name": "Frankfurt", "lat": 50.0264, "lon": 8.5431},
  {"icao": "EDDM", "name": "Munich", "lat": 48.3538, "lon": 11.7861},
  {"icao": "EDDB", "name": "Berlin Brandenburg", "lat": 52.3667, "lon": 13.5033},
  {"icao": "EDDH", "name": "Hamburg", "lat": 53.6304, "lon": 9.9882},
  {"icao": "EDDL", "name": "Dusseldorf", "lat": 51.2895, "lon": 6.7668},
  {"icao": "EDDK", "name": "Cologne Bonn", "lat": 50.8659, "lon": 7.1427},
  {"icao": "EDDV", "name": "Hannover", "lat": 52.4611, "lon": 9.6850},
  {"icao": "LIRF", "name": "Rome Fiumicino", "lat": 41.8003, "lon": 12.2389},
  {"icao": "LIMC", "name": "Milan Malpensa", "lat": 45.6306, "lon": 8.7281},
  {"icao": "LIPZ", "name": "Venice", "lat": 45.5053, "lon": 12.3519},
  {"icao": "LIRN", "name": "Naples", "lat": 40.8860, "lon": 14.2908},
  {"icao": "EHAM", "name": "Amsterdam Schiphol", "lat": 52.3086, "lon": 4.7639},
  {"icao": "EHRD", "name": "Rotterdam", "lat": 51.9569, "lon": 4.4372},
  {"icao": "EBBR", "name": "Brussels", "lat": 50.9014, "lon": 4.4844},
  {"icao": "LOWW", "name": "Vienna", "lat": 48.1103, "lon": 16.5697},
  {"icao": "LSZH", "name": "Zurich", "lat": 47.4647, "lon": 8.5492},
  {"icao": "LSGG", "name": "Geneva", "lat": 46.2381, "lon": 6.1089},
  {"icao": "EKCH", "name": "Copenhagen", "lat": 55.6180, "lon": 12.6560},
  {"icao": "ESSA", "name": "Stockholm Arlanda", "lat": 59.6519, "lon": 17.9186},
  {"icao": "ENGM", "name": "Oslo Gardermoen", "lat": 60.1939, "lon": 11.1004},
  {"icao": "EFHK", "name": "Helsinki", "lat": 60.3172, "lon": 24.9633},
  {"icao": "LPPT", "name": "Lisbon", "lat": 38.7813, "lon": -9.1359},
  {"icao": "LPPR", "name": "Porto", "lat": 41.2481, "lon": -8.6814},
  {"icao": "LPFR", "name": "Faro", "lat": 37.0144, "lon": -7.9659},
  {"icao": "LPPD", "name": "Ponta Delgada", "lat": 37.7412, "lon": -25.6979},
  {"icao": "LPMA", "name": "Madeira", "lat": 32.6979, "lon": -16.7745},
  {"icao": "LPHR", "name": "Horta", "lat": 38.5199, "lon": -28.7159},
  {"icao": "EIDW", "name": "Dublin", "lat": 53.4213, "lon": -6.2701},
  {"icao": "EICK", "name": "Cork", "lat": 51.8413, "lon": -8.4911},
  {"icao": "EINN", "name": "Shannon", "lat": 52.7020, "lon": -8.9248},
  {"icao": "EGPF", "name": "Glasgow", "lat": 55.8719, "lon": -4.4331},
  {"icao": "EGPH", "name": "Edinburgh", "lat": 55.9500, "lon": -3.3725},
  {"icao": "EGPD", "name": "Aberdeen", "lat": 57.2019, "lon": -2.1978},
  {"icao": "EGCC", "name": "Manchester", "lat": 53.3537, "lon": -2.2750},
  {"icao": "EGBB", "name": "Birmingham", "lat": 52.4539, "lon": -1.7480},
  {"icao": "EGNX", "name": "East Midlands", "lat": 52.8311, "lon": -1.3278},
  {"icao": "EGNJ", "name": "Humberside", "lat": 53.5744, "lon": -0.3508},
  {"icao": "EGNR", "name": "Hawarden", "lat": 53.1781, "lon": -2.9778},
  {"icao": "EGNS", "name": "Isle of Man", "lat": 54.0833, "lon": -4.6239},
  {"icao": "EGNT", "name": "Newcastle", "lat": 55.0375, "lon": -1.6917},
  {"icao": "EGNV", "name": "Teesside", "lat": 54.5092, "lon": -1.4294},
  {"icao": "EGNM", "name": "Leeds Bradford", "lat": 53.8659, "lon": -1.6606},
  {"icao": "EGSH", "name": "Norwich", "lat": 52.6758, "lon": 1.2828},
  {"icao": "EGTB", "name": "Wycombe Air Park", "lat": 51.6117, "lon": -0.8083},
  {"icao": "EGTC", "name": "Cranfield", "lat": 52.0722, "lon": -0.6167},
  {"icao": "EGTD", "name": "Dunsfold", "lat": 51.1181, "lon": -0.5347},
  {"icao": "EGTE", "name": "Exeter", "lat": 50.7344, "lon": -3.4139},
  {"icao": "EGTF", "name": "Fairoaks", "lat": 51.3481, "lon": -0.5589},
  {"icao": "EGTG", "name": "Filton", "lat": 51.5194, "lon": -2.5908},
  {"icao": "EGTH", "name": "Old Warden", "lat": 52.0889, "lon": -0.3250},
  {"icao": "EGTO", "name": "Rochester", "lat": 51.3519, "lon": 0.5033},
  {"icao": "EGTP", "name": "Perranporth", "lat": 50.3231, "lon": -5.1772},
  {"icao": "EGTR", "name": "Elstree", "lat": 51.6556, "lon": -0.3264},
  {"icao": "EGTU", "name": "Dunkeswell", "lat": 50.8597, "lon": -3.2344},
  {"icao": "EGTW", "name": "Oaksey Park", "lat": 51.5933, "lon": -1.9592},
  {"icao": "EGUB", "name": "Benson", "lat": 51.6164, "lon": -1.0958},
  {"icao": "EGUW", "name": "Wattisham", "lat": 52.1267, "lon": 0.9564},
  {"icao": "EGVA", "name": "Fairford", "lat": 51.6822, "lon": -1.7900},
  {"icao": "EGVN", "name": "Brize Norton", "lat": 51.7500, "lon": -1.5836},
  {"icao": "EGYM", "name": "Marham", "lat": 52.6486, "lon": 0.5508},
  {"icao": "EGUN", "name": "Mildenhall", "lat": 52.3619, "lon": 0.4861},
  {"icao": "EGUL", "name": "Lakenheath", "lat": 52.4093, "lon": 0.5610}
]
